{
  "type": "FeatureCollection",
  "features": [
    {
      "type": "Feature",
      "properties": {
        "marker-color": "#479e5d",
        "marker-size": "small",
        "marker-symbol": "t",
        "title": "Túnel El Maitén",
        "description": "Estado: Abandonado, estructura firme.<br>Longitud: 130 metros."
      },
      "geometry": {
        "type": "Point",
        "coordinates": [
          -70.9107287508,
          -29.9826373626
        ]
      }
    },
    {
      "type": "Feature",
      "properties": {
        "title": "Túnel El Almendral",
        "description": "Estado: Abandonado, estructura firme.<br>Longitud: 42 metros.",
        "marker-color": "#479e5d",
        "marker-size": "small",
        "marker-symbol": "t"
      },
      "geometry": {
        "type": "Point",
        "coordinates": [
          -70.8854028303,
          -29.9874790013
        ]
      }
    },
    {
      "type": "Feature",
      "properties": {
        "title": "Túnel Puclaro",
        "description": "Estado: Abandonado, estructura firme<br>Longitud: 51 metros.",
        "marker-color": "#479e5d",
        "marker-size": "small",
        "marker-symbol": "t"
      },
      "geometry": {
        "type": "Point",
        "coordinates": [
          -70.8827333618,
          -29.9888600036
        ]
      }
    },
    {
      "type": "Feature",
      "properties": {
        "title": "Túnel Bellavista",
        "description": "Abandonado, estructura firme.<br>Longitud: 59 metros.",
        "marker-color": "#479e5d",
        "marker-size": "small",
        "marker-symbol": "t"
      },
      "geometry": {
        "type": "Point",
        "coordinates": [
          -70.7649708912,
          -30.0230514631
        ]
      }
    },
    {
      "type": "Feature",
      "properties": {
        "title": "Túnel Huancara",
        "description": "Abandono, estructura firme.<br>Longitud: 150 metros.",
        "marker-color": "#479e5d",
        "marker-size": "small",
        "marker-symbol": "t"
      },
      "geometry": {
        "type": "Point",
        "coordinates": [
          -70.7498827111,
          -30.0287293643
        ]
      }
    }
  ]
}
